{"type": "FeatureCollection", "features": [{"geometry": {"type": "Point", "coordinates": [4.39261, 50.823204, 87.0]}, "type": "Feature", "properties": {"Date of installation": "2/11/2016", "marker-color": "#00ff00", "marker-symbol": "circle", "Station site type": "University", "Site name": "VUB Campus", "Country": "Belgium", "Mount height (meters)": "87", "Station status": "Active", "Station ID": "TA00001", "marker-size": "medium"}}, {"geometry": {"type": "Point", "coordinates": [1.2816, 12.2358, 320.0]}, "type": "Feature", "properties": {"Date of installation": "12/19/2015", "marker-color": "#00ff00", "marker-symbol": "circle", "Station site type": "Multi-story building", "Site name": "R\u00e9seau MARP", "Country": "Burkina Faso", "Mount height (meters)": "10", "Station status": "Active", "Station ID": "TA00002", "marker-size": "medium"}}, {"geometry": {"type": "Point", "coordinates": [15.0455833, 12.1385, 290.2]}, "type": "Feature", "properties": {"Date of installation": "3/4/2015", "marker-color": "#ff0000", "marker-symbol": "circle", "Station site type": "Airport", "Site name": "Hassan Djamous Airport Ndjamena", "Country": "CHAD", "Mount height (meters)": "2", "Station status": "Closed", "Station ID": "TA00003", "marker-size": "medium"}}, {"geometry": {"type": "Point", "coordinates": [15.209333, 11.568833, 314.2]}, "type": "Feature", "properties": {"Date of installation": "3/4/2015", "marker-color": "#ff0000", "marker-symbol": "circle", "Station site type": "Village", "Site name": "Kin Kin", "Country": "CHAD", "Mount height (meters)": "2", "Station status": "Closed", "Station ID": "TA00004", "marker-size": "medium"}}, {"geometry": {"type": "Point", "coordinates": [15.112333, 12.017333, 308.1]}, "type": "Feature", "properties": {"Date of installation": "3/4/2015", "marker-color": "#ff0000", "marker-symbol": "circle", "Station site type": "University", "Site name": "University of Ndjamena, Toukra Campus", "Country": "CHAD", "Mount height (meters)": "2", "Station status": "Closed", "Station ID": "TA00005", "marker-size": "medium"}}, {"geometry": {"type": "Point", "coordinates": [14.6928056, 13.5028611, 285.0]}, "type": "Feature", "properties": {"Date of installation": "4/2/2016", "marker-color": "#00ff00", "marker-symbol": "circle", "Station site type": "Government office", "Site name": "Bol Matafo1", "Country": "CHAD", "Mount height (meters)": "2", "Station status": "Active", "Station ID": "TA00006", "marker-size": "medium"}}, {"geometry": {"type": "Point", "coordinates": [14.6928056, 13.5028611, 285.0]}, "type": "Feature", "properties": {"Date of installation": "4/2/2016", "marker-color": "#00ff00", "marker-symbol": "circle", "Station site type": "Government office", "Site name": "Bol Matafo2", "Country": "CHAD", "Mount height (meters)": "2", "Station status": "Active", "Station ID": "TA00007", "marker-size": "medium"}}, {"geometry": {"type": "Point", "coordinates": [15.0457028, 12.1385972, 297.0]}, "type": "Feature", "properties": {"Date of installation": "4/5/2016", "marker-color": "#00ff00", "marker-symbol": "circle", "Station site type": "Government office", "Site name": "N'Djamena Airport", "Country": "CHAD", "Mount height (meters)": "2", "Station status": "Active", "Station ID": "TA00008", "marker-size": "medium"}}, {"geometry": {"type": "Point", "coordinates": [15.0457972, 12.1386222, 297.0]}, "type": "Feature", "properties": {"Date of installation": "4/5/2016", "marker-color": "#00ff00", "marker-symbol": "circle", "Station site type": "Government office", "Site name": "N'Djamena Airport", "Country": "CHAD", "Mount height (meters)": "2", "Station status": "Active", "Station ID": "TA00009", "marker-size": "medium"}}, {"geometry": {"type": "Point", "coordinates": [15.2092889, 11.5688389, 307.0]}, "type": "Feature", "properties": {"Date of installation": "4/6/2016", "marker-color": "#00ff00", "marker-symbol": "circle", "Station site type": "Village", "Site name": "Kin Kin Village", "Country": "CHAD", "Mount height (meters)": "2", "Station status": "Active", "Station ID": "TA00010", "marker-size": "medium"}}, {"geometry": {"type": "Point", "coordinates": [15.2093111, 11.5688056, 307.0]}, "type": "Feature", "properties": {"Date of installation": "4/6/2016", "marker-color": "#00ff00", "marker-symbol": "circle", "Station site type": "Village", "Site name": "Kin Kin Village", "Country": "CHAD", "Mount height (meters)": "2", "Station status": "Active", "Station ID": "TA00011", "marker-size": "medium"}}, {"geometry": {"type": "Point", "coordinates": [-1.8815226, 5.1525726, 113.0]}, "type": "Feature", "properties": {"Date of installation": "8/17/2015", "marker-color": "#00ff00", "marker-symbol": "circle", "Station site type": "Secondary school", "Site name": "Benso SHS", "Country": "GHANA", "Mount height (meters)": "2", "Station status": "Active", "Station ID": "TA00012", "marker-size": "medium"}}, {"geometry": {"type": "Point", "coordinates": [-2.1339285, 5.4468564, 63.0]}, "type": "Feature", "properties": {"Date of installation": "8/18/2015", "marker-color": "#00ff00", "marker-symbol": "circle", "Station site type": "Secondary school", "Site name": "Prestea SHTS", "Country": "GHANA", "Mount height (meters)": "2", "Station status": "Active", "Station ID": "TA00013", "marker-size": "medium"}}, {"geometry": {"type": "Point", "coordinates": [-2.2668173, 5.643022, 147.0]}, "type": "Feature", "properties": {"Date of installation": "8/18/2015", "marker-color": "#00ff00", "marker-symbol": "circle", "Station site type": "National vocational training institute", "Site name": "Manso Amenfi NVTI", "Country": "GHANA", "Mount height (meters)": "2", "Station status": "Active", "Station ID": "TA00014", "marker-size": "medium"}}, {"geometry": {"type": "Point", "coordinates": [-2.426433, 5.8076924, 146.0]}, "type": "Feature", "properties": {"Date of installation": "8/19/2015", "marker-color": "#00ff00", "marker-symbol": "circle", "Station site type": "Secondary school", "Site name": "Asankragwa SHS", "Country": "GHANA", "Mount height (meters)": "2", "Station status": "Active", "Station ID": "TA00015", "marker-size": "medium"}}, {"geometry": {"type": "Point", "coordinates": [-2.8256169, 5.8112918, 139.0]}, "type": "Feature", "properties": {"Date of installation": "8/19/2015", "marker-color": "#00ff00", "marker-symbol": "circle", "Station site type": "Secondary school", "Site name": "Nana Brentu SHTS Enchi", "Country": "GHANA", "Mount height (meters)": "2", "Station status": "Active", "Station ID": "TA00016", "marker-size": "medium"}}, {"geometry": {"type": "Point", "coordinates": [-2.097519, 7.1882572, 366.0]}, "type": "Feature", "properties": {"Date of installation": "8/24/2015", "marker-color": "#00ff00", "marker-symbol": "circle", "Station site type": "Secondary school", "Site name": "Nana Yaa Kesse SHS Duayaw Nkwanta", "Country": "GHANA", "Mount height (meters)": "2", "Station status": "Active", "Station ID": "TA00017", "marker-size": "medium"}}, {"geometry": {"type": "Point", "coordinates": [-2.4760686, 7.4130054, 359.0]}, "type": "Feature", "properties": {"Date of installation": "8/25/2015", "marker-color": "#00ff00", "marker-symbol": "circle", "Station site type": "Secondary school", "Site name": "Sacred Heart SHS Nsoatre", "Country": "GHANA", "Mount height (meters)": "2", "Station status": "Active", "Station ID": "TA00018", "marker-size": "medium"}}, {"geometry": {"type": "Point", "coordinates": [-2.7822522, 7.224886, 319.0]}, "type": "Feature", "properties": {"Date of installation": "8/25/2015", "marker-color": "#00ff00", "marker-symbol": "circle", "Station site type": "Secondary school", "Site name": "Adehyeman SHS Amasu", "Country": "GHANA", "Mount height (meters)": "2", "Station status": "Active", "Station ID": "TA00019", "marker-size": "medium"}}, {"geometry": {"type": "Point", "coordinates": [-2.1859949, 7.3896776, 362.0]}, "type": "Feature", "properties": {"Date of installation": "8/25/2015", "marker-color": "#00ff00", "marker-symbol": "circle", "Station site type": "Secondary school", "Site name": "Chiraa SHS", "Country": "GHANA", "Mount height (meters)": "2", "Station status": "Active", "Station ID": "TA00020", "marker-size": "medium"}}, {"geometry": {"type": "Point", "coordinates": [-2.3961548, 6.9857812, 273.0]}, "type": "Feature", "properties": {"Date of installation": "8/26/2015", "marker-color": "#00ff00", "marker-symbol": "circle", "Station site type": "Secondary school", "Site name": "OLA Girls SS Kenyasi", "Country": "GHANA", "Mount height (meters)": "2", "Station status": "Active", "Station ID": "TA00021", "marker-size": "medium"}}, {"geometry": {"type": "Point", "coordinates": [-2.3538655, 6.9368923, 235.0]}, "type": "Feature", "properties": {"Date of installation": "8/26/2015", "marker-color": "#00ff00", "marker-symbol": "circle", "Station site type": "Secondary school", "Site name": "Hwidiem SHS", "Country": "GHANA", "Mount height (meters)": "2", "Station status": "Active", "Station ID": "TA00022", "marker-size": "medium"}}, {"geometry": {"type": "Point", "coordinates": [-1.9084677, 5.4694703, 155.0]}, "type": "Feature", "properties": {"Date of installation": "8/18/2015", "marker-color": "#00ff00", "marker-symbol": "circle", "Station site type": "Secondary school", "Site name": "Huni Valley SHS", "Country": "GHANA", "Mount height (meters)": "2", "Station status": "Active", "Station ID": "TA00023", "marker-size": "medium"}}, {"geometry": {"type": "Point", "coordinates": [-2.82625, 6.345183, 172.0]}, "type": "Feature", "properties": {"Date of installation": "8/28/2015", "marker-color": "#00ff00", "marker-symbol": "circle", "Station site type": "Secondary school", "Site name": "Juaboso SHS", "Country": "GHANA", "Mount height (meters)": "2", "Station status": "Active", "Station ID": "TA00024", "marker-size": "medium"}}, {"geometry": {"type": "Point", "coordinates": [-3.097246, 6.664616, 228.0]}, "type": "Feature", "properties": {"Date of installation": "8/28/2015", "marker-color": "#00ff00", "marker-symbol": "circle", "Station site type": "Secondary school", "Site name": "Bia SHTS Debiso", "Country": "GHANA", "Mount height (meters)": "2", "Station status": "Active", "Station ID": "TA00025", "marker-size": "medium"}}, {"geometry": {"type": "Point", "coordinates": [-0.24447074, 5.5730222, 57.0]}, "type": "Feature", "properties": {"Date of installation": "9/1/2015", "marker-color": "#00ff00", "marker-symbol": "circle", "Station site type": "Secondary school", "Site name": "Accra Academy School, Accra", "Country": "GHANA", "Mount height (meters)": "2", "Station status": "Active", "Station ID": "TA00026", "marker-size": "medium"}}, {"geometry": {"type": "Point", "coordinates": [-1.568333333, 6.684166667, 302.0]}, "type": "Feature", "properties": {"Date of installation": "11/25/2014", "marker-color": "#00ff00", "marker-symbol": "circle", "Station site type": "Junior High School", "Site name": "KNUST JHS Kumasi", "Country": "GHANA", "Mount height (meters)": "2", "Station status": "Active", "Station ID": "TA00027", "marker-size": "medium"}}, {"geometry": {"type": "Point", "coordinates": [-1.090277778, 10.88472222, 200.0]}, "type": "Feature", "properties": {"Date of installation": "11/22/2014", "marker-color": "#00ff00", "marker-symbol": "circle", "Station site type": "University", "Site name": "University for Development Studies, Navrongo Campus", "Country": "GHANA", "Mount height (meters)": "2", "Station status": "Active", "Station ID": "TA00028", "marker-size": "medium"}}, {"geometry": {"type": "Point", "coordinates": [-1.052630556, 6.1871, 204.0]}, "type": "Feature", "properties": {"Date of installation": "4/17/2015", "marker-color": "#00ff00", "marker-symbol": "circle", "Station site type": "Secondary school", "Site name": "Obuasi TSHS, Obuasi", "Country": "GHANA", "Mount height (meters)": "2", "Station status": "Active", "Station ID": "TA00029", "marker-size": "medium"}}, {"geometry": {"type": "Point", "coordinates": [-1.359444444, 6.22, 239.0]}, "type": "Feature", "properties": {"Date of installation": "4/13/2015", "marker-color": "#00ff00", "marker-symbol": "circle", "Station site type": "JHS and Research Centre", "Site name": "CRIG, Tafo", "Country": "GHANA", "Mount height (meters)": "2", "Station status": "Active", "Station ID": "TA00030", "marker-size": "medium"}}, {"geometry": {"type": "Point", "coordinates": [-0.669077778, 6.654452778, 503.0]}, "type": "Feature", "properties": {"Date of installation": "4/14/2015", "marker-color": "#00ff00", "marker-symbol": "circle", "Station site type": "Secondary school", "Site name": "St. Joseph Technical School, Kwahu Tafo", "Country": "GHANA", "Mount height (meters)": "2", "Station status": "Active", "Station ID": "TA00031", "marker-size": "medium"}}, {"geometry": {"type": "Point", "coordinates": [-1.515, 6.851388889, 350.0]}, "type": "Feature", "properties": {"Date of installation": "4/16/2015", "marker-color": "#00ff00", "marker-symbol": "circle", "Station site type": "JHS", "Site name": "Mountain High School, Kona, Ashanti Region", "Country": "GHANA", "Mount height (meters)": "2", "Station status": "Active", "Station ID": "TA00032", "marker-size": "medium"}}, {"geometry": {"type": "Point", "coordinates": [-0.146602778, 6.406175, 393.0]}, "type": "Feature", "properties": {"Date of installation": "4/14/2015", "marker-color": "#00ff00", "marker-symbol": "circle", "Station site type": "Secondary school", "Site name": "Asesewaa Senior High School, Asesewaa", "Country": "GHANA", "Mount height (meters)": "2", "Station status": "Active", "Station ID": "TA00033", "marker-size": "medium"}}, {"geometry": {"type": "Point", "coordinates": [-1.520297222, 6.302466667, 250.0]}, "type": "Feature", "properties": {"Date of installation": "4/17/2015", "marker-color": "#00ff00", "marker-symbol": "circle", "Station site type": "Secondary school", "Site name": "Dompoase Senior High School, Dompoase", "Country": "GHANA", "Mount height (meters)": "2", "Station status": "Active", "Station ID": "TA00034", "marker-size": "medium"}}, {"geometry": {"type": "Point", "coordinates": [-1.417355556, 6.283841667, 232.0]}, "type": "Feature", "properties": {"Date of installation": "4/17/2015", "marker-color": "#00ff00", "marker-symbol": "circle", "Station site type": "Secondary school", "Site name": "Bodwesango Senior High School, Bodwesango", "Country": "GHANA", "Mount height (meters)": "2", "Station status": "Active", "Station ID": "TA00035", "marker-size": "medium"}}, {"geometry": {"type": "Point", "coordinates": [-1.166888889, 6.653675, 278.0]}, "type": "Feature", "properties": {"Date of installation": "4/18/2015", "marker-color": "#00ff00", "marker-symbol": "circle", "Station site type": "Secondary school", "Site name": "Asante Akyem Technology Institute", "Country": "GHANA", "Mount height (meters)": "2", "Station status": "Active", "Station ID": "TA00036", "marker-size": "medium"}}, {"geometry": {"type": "Point", "coordinates": [-1.282597222, 6.396666667, 218.0]}, "type": "Feature", "properties": {"Date of installation": "4/19/2015", "marker-color": "#00ff00", "marker-symbol": "circle", "Station site type": "Secondary school", "Site name": "Ofoase Senior HTS", "Country": "GHANA", "Mount height (meters)": "2", "Station status": "Active", "Station ID": "TA00037", "marker-size": "medium"}}, {"geometry": {"type": "Point", "coordinates": [-1.052630556, 6.619158333, 204.0]}, "type": "Feature", "properties": {"Date of installation": "4/17/2015", "marker-color": "#00ff00", "marker-symbol": "circle", "Station site type": "Secondary school", "Site name": "Bompata Presby SHS, Bompata", "Country": "GHANA", "Mount height (meters)": "2", "Station status": "Active", "Station ID": "TA00038", "marker-size": "medium"}}, {"geometry": {"type": "Point", "coordinates": [-0.1645213, 5.6511025, 19.0]}, "type": "Feature", "properties": {"Date of installation": "5/20/2016", "marker-color": "#00ff00", "marker-symbol": "circle", "Station site type": "Government office", "Site name": "GMet HQ", "Country": "GHANA", "Mount height (meters)": "2", "Station status": "Active", "Station ID": "TA00039", "marker-size": "medium"}}, {"geometry": {"type": "Point", "coordinates": [34.3979917, -1.1232833, 1393.0]}, "type": "Feature", "properties": {"Date of installation": "8/1/2012", "marker-color": "#ff0000", "marker-symbol": "circle", "Station site type": "Primary school", "Site name": "Lela Primary School", "Country": "KENYA", "Mount height (meters)": "5", "Station status": "Closed", "Station ID": "TA00040", "marker-size": "medium"}}, {"geometry": {"type": "Point", "coordinates": [34.3979917, -1.1232833, 1393.0]}, "type": "Feature", "properties": {"Date of installation": "3/26/2014", "marker-color": "#00ff00", "marker-symbol": "circle", "Station site type": "Primary school", "Site name": "Lela Primary School", "Country": "KENYA", "Mount height (meters)": "5", "Station status": "Active", "Station ID": "TA00041", "marker-size": "medium"}}, {"geometry": {"type": "Point", "coordinates": [34.6072611, -0.5820111, 1407.0]}, "type": "Feature", "properties": {"Date of installation": "6/18/2014", "marker-color": "#00ff00", "marker-symbol": "circle", "Station site type": "Secondary school", "Site name": "Koyoo Secondary School", "Country": "KENYA", "Mount height (meters)": "2", "Station status": "Active", "Station ID": "TA00042", "marker-size": "medium"}}, {"geometry": {"type": "Point", "coordinates": [34.2556472, -0.5241139, 1281.0]}, "type": "Feature", "properties": {"Date of installation": "3/27/2015", "marker-color": "#00ff00", "marker-symbol": "circle", "Station site type": "Secondary school", "Site name": "Osodo Secondary School", "Country": "KENYA", "Mount height (meters)": "2.5", "Station status": "Active", "Station ID": "TA00043", "marker-size": "medium"}}, {"geometry": {"type": "Point", "coordinates": [36.8623972, -1.6533556, 1643.0]}, "type": "Feature", "properties": {"Date of installation": "5/28/2015", "marker-color": "#00ff00", "marker-symbol": "circle", "Station site type": "Woodlands plot", "Site name": "Woodlands 2000 Trust", "Country": "KENYA", "Mount height (meters)": "2", "Station status": "Active", "Station ID": "TA00044", "marker-size": "medium"}}, {"geometry": {"type": "Point", "coordinates": [35.1737111, 0.7579861, 1946.0]}, "type": "Feature", "properties": {"Date of installation": "6/9/2015", "marker-color": "#00ff00", "marker-symbol": "circle", "Station site type": "Primary school", "Site name": "Kipsomba Secondary School", "Country": "KENYA", "Mount height (meters)": "2", "Station status": "Active", "Station ID": "TA00045", "marker-size": "medium"}}, {"geometry": {"type": "Point", "coordinates": [34.9201361, 0.9141056, 1757.0]}, "type": "Feature", "properties": {"Date of installation": "6/9/2015", "marker-color": "#ff0000", "marker-symbol": "circle", "Station site type": "Commercial farm", "Site name": "Bubayi-Saboti Farm", "Country": "KENYA", "Mount height (meters)": "2", "Station status": "Closed", "Station ID": "TA00046", "marker-size": "medium"}}, {"geometry": {"type": "Point", "coordinates": [38.0407667, -2.38855, 791.0]}, "type": "Feature", "properties": {"Date of installation": "6/17/2015", "marker-color": "#00ff00", "marker-symbol": "circle", "Station site type": "Commercial farm", "Site name": "Dwa Estate", "Country": "KENYA", "Mount height (meters)": "2.5", "Station status": "Active", "Station ID": "TA00047", "marker-size": "medium"}}, {"geometry": {"type": "Point", "coordinates": [37.0455778, -1.0717306, 1520.0]}, "type": "Feature", "properties": {"Date of installation": "8/4/2015", "marker-color": "#00ff00", "marker-symbol": "circle", "Station site type": "Secondary school", "Site name": "Mang'u High School", "Country": "KENYA", "Mount height (meters)": "2", "Station status": "Active", "Station ID": "TA00048", "marker-size": "medium"}}, {"geometry": {"type": "Point", "coordinates": [36.7602, -1.3018389, 1798.0]}, "type": "Feature", "properties": {"Date of installation": "8/17/2015", "marker-color": "#00ff00", "marker-symbol": "circle", "Station site type": "Government office", "Site name": "Kenya Meteorological Department", "Country": "KENYA", "Mount height (meters)": "2", "Station status": "Active", "Station ID": "TA00049", "marker-size": "medium"}}, {"geometry": {"type": "Point", "coordinates": [36.1699806, -0.2871222, 1936.0]}, "type": "Feature", "properties": {"Date of installation": "8/28/2015", "marker-color": "#00ff00", "marker-symbol": "circle", "Station site type": "Secondary school", "Site name": "Moi Forces Academy", "Country": "KENYA", "Mount height (meters)": "2", "Station status": "Active", "Station ID": "TA00050", "marker-size": "medium"}}, {"geometry": {"type": "Point", "coordinates": [37.6563028, 0.0630611, 1607.0]}, "type": "Feature", "properties": {"Date of installation": "8/31/2015", "marker-color": "#00ff00", "marker-symbol": "circle", "Station site type": "Secondary school", "Site name": "Kaaga Boys High School", "Country": "KENYA", "Mount height (meters)": "2", "Station status": "Active", "Station ID": "TA00051", "marker-size": "medium"}}, {"geometry": {"type": "Point", "coordinates": [37.1428194, 0.0459861, 2016.0]}, "type": "Feature", "properties": {"Date of installation": "8/31/2015", "marker-color": "#00ff00", "marker-symbol": "circle", "Station site type": "Commercial farm", "Site name": "Equinox Horticulture", "Country": "KENYA", "Mount height (meters)": "7", "Station status": "Active", "Station ID": "TA00052", "marker-size": "medium"}}, {"geometry": {"type": "Point", "coordinates": [36.5874972, -0.5008389, 2523.0]}, "type": "Feature", "properties": {"Date of installation": "9/2/2015", "marker-color": "#00ff00", "marker-symbol": "circle", "Station site type": "Secondary school", "Site name": "Karima Girls High School", "Country": "KENYA", "Mount height (meters)": "2", "Station status": "Active", "Station ID": "TA00053", "marker-size": "medium"}}, {"geometry": {"type": "Point", "coordinates": [35.8923361, -1.0946806, 1922.0]}, "type": "Feature", "properties": {"Date of installation": "9/9/2015", "marker-color": "#00ff00", "marker-symbol": "circle", "Station site type": "Secondary school", "Site name": "Ole Tipis Girls Secondary School", "Country": "KENYA", "Mount height (meters)": "2", "Station status": "Active", "Station ID": "TA00054", "marker-size": "medium"}}, {"geometry": {"type": "Point", "coordinates": [34.4601444, -0.5376778, 1221.0]}, "type": "Feature", "properties": {"Date of installation": "3/23/2015", "marker-color": "#00ff00", "marker-symbol": "circle", "Station site type": "Secondary school", "Site name": "Homa Bay High School", "Country": "KENYA", "Mount height (meters)": "2", "Station status": "Active", "Station ID": "TA00055", "marker-size": "medium"}}, {"geometry": {"type": "Point", "coordinates": [35.728897, -0.2393417, 2508.0]}, "type": "Feature", "properties": {"Date of installation": "9/23/2015", "marker-color": "#00ff00", "marker-symbol": "circle", "Station site type": "Secondary school", "Site name": "Molo Academy", "Country": "KENYA", "Mount height (meters)": "2", "Station status": "Active", "Station ID": "TA00056", "marker-size": "medium"}}, {"geometry": {"type": "Point", "coordinates": [37.1455851, -0.7216559, 1376.0]}, "type": "Feature", "properties": {"Date of installation": "10/3/2015", "marker-color": "#00ff00", "marker-symbol": "circle", "Station site type": "Secondary school", "Site name": "Murang'a High School", "Country": "KENYA", "Mount height (meters)": "2", "Station status": "Active", "Station ID": "TA00057", "marker-size": "medium"}}, {"geometry": {"type": "Point", "coordinates": [36.8564253, -1.2530375, 1636.0]}, "type": "Feature", "properties": {"Date of installation": "10/8/2015", "marker-color": "#00ff00", "marker-symbol": "circle", "Station site type": "Primary school", "Site name": "St. Scholastica Catholic School", "Country": "KENYA", "Mount height (meters)": "2", "Station status": "Active", "Station ID": "TA00058", "marker-size": "medium"}}, {"geometry": {"type": "Point", "coordinates": [35.2507188, -0.3793746, 1968.0]}, "type": "Feature", "properties": {"Date of installation": "10/16/2015", "marker-color": "#00ff00", "marker-symbol": "circle", "Station site type": "Secondary school", "Site name": "Kipsigis Girls High School", "Country": "KENYA", "Mount height (meters)": "2", "Station status": "Active", "Station ID": "TA00059", "marker-size": "medium"}}, {"geometry": {"type": "Point", "coordinates": [35.0853626, 1.2734194, 2063.0]}, "type": "Feature", "properties": {"Date of installation": "10/21/2015", "marker-color": "#ff0000", "marker-symbol": "circle", "Station site type": "Secondary school", "Site name": "Nasokol Girls High School", "Country": "KENYA", "Mount height (meters)": "2", "Station status": "Closed", "Station ID": "TA00060", "marker-size": "medium"}}, {"geometry": {"type": "Point", "coordinates": [35.1166889, 0.2030556, 2015.0]}, "type": "Feature", "properties": {"Date of installation": "11/4/2015", "marker-color": "#00ff00", "marker-symbol": "circle", "Station site type": "Secondary school", "Site name": "Kapsabet Boys High School", "Country": "KENYA", "Mount height (meters)": "2", "Station status": "Active", "Station ID": "TA00061", "marker-size": "medium"}}, {"geometry": {"type": "Point", "coordinates": [34.7053857, 0.7939077, 1721.0]}, "type": "Feature", "properties": {"Date of installation": "11/4/2015", "marker-color": "#00ff00", "marker-symbol": "circle", "Station site type": "Secondary school", "Site name": "Kamusinga Friends Boys Secondary School", "Country": "KENYA", "Mount height (meters)": "2", "Station status": "Active", "Station ID": "TA00062", "marker-size": "medium"}}, {"geometry": {"type": "Point", "coordinates": [34.7684636, 0.2180637, 1566.0]}, "type": "Feature", "properties": {"Date of installation": "11/5/2015", "marker-color": "#00ff00", "marker-symbol": "circle", "Station site type": "Secondary school", "Site name": "Mukumu Girls High School", "Country": "KENYA", "Mount height (meters)": "2", "Station status": "Active", "Station ID": "TA00063", "marker-size": "medium"}}, {"geometry": {"type": "Point", "coordinates": [36.6623375, -1.2654376, 1996.0]}, "type": "Feature", "properties": {"Date of installation": "11/5/2015", "marker-color": "#00ff00", "marker-symbol": "circle", "Station site type": "Secondary school", "Site name": "Alliance Girls High School", "Country": "KENYA", "Mount height (meters)": "2", "Station status": "Active", "Station ID": "TA00064", "marker-size": "medium"}}, {"geometry": {"type": "Point", "coordinates": [37.6211448, -1.7935253, 1184.0]}, "type": "Feature", "properties": {"Date of installation": "11/12/2015", "marker-color": "#00ff00", "marker-symbol": "circle", "Station site type": "Secondary school", "Site name": "Makueni Boys School", "Country": "KENYA", "Mount height (meters)": "2", "Station status": "Active", "Station ID": "TA00065", "marker-size": "medium"}}, {"geometry": {"type": "Point", "coordinates": [39.4409797, -4.373456, 132.0]}, "type": "Feature", "properties": {"Date of installation": "11/19/2015", "marker-color": "#00ff00", "marker-symbol": "circle", "Station site type": "Mine", "Site name": "Base Titanium Mine", "Country": "KENYA", "Mount height (meters)": "2.5", "Station status": "Active", "Station ID": "TA00066", "marker-size": "medium"}}, {"geometry": {"type": "Point", "coordinates": [39.4305637, -4.4062421, 55.0]}, "type": "Feature", "properties": {"Date of installation": "11/19/2015", "marker-color": "#00ff00", "marker-symbol": "circle", "Station site type": "Mine", "Site name": "Base Titanium Dam", "Country": "KENYA", "Mount height (meters)": "2.5", "Station status": "Active", "Station ID": "TA00067", "marker-size": "medium"}}, {"geometry": {"type": "Point", "coordinates": [39.3718988, -4.3117683, 243.0]}, "type": "Feature", "properties": {"Date of installation": "11/20/2015", "marker-color": "#00ff00", "marker-symbol": "circle", "Station site type": "National park", "Site name": "Shimba Hills Kidongo Gate", "Country": "KENYA", "Mount height (meters)": "2", "Station status": "Active", "Station ID": "TA00068", "marker-size": "medium"}}, {"geometry": {"type": "Point", "coordinates": [39.4828099, -4.4607798, 23.0]}, "type": "Feature", "properties": {"Date of installation": "11/20/2015", "marker-color": "#00ff00", "marker-symbol": "circle", "Station site type": "Government office", "Site name": "Msambweni SCAO", "Country": "KENYA", "Mount height (meters)": "2", "Station status": "Active", "Station ID": "TA00069", "marker-size": "medium"}}, {"geometry": {"type": "Point", "coordinates": [39.6568773, -4.0789825, 14.0]}, "type": "Feature", "properties": {"Date of installation": "11/20/2015", "marker-color": "#00ff00", "marker-symbol": "circle", "Station site type": "Secondary school", "Site name": "Likoni School for the Blind", "Country": "KENYA", "Mount height (meters)": "3", "Station status": "Active", "Station ID": "TA00070", "marker-size": "medium"}}, {"geometry": {"type": "Point", "coordinates": [36.9338194, -0.0717111, 1840.0]}, "type": "Feature", "properties": {"Date of installation": "11/19/2015", "marker-color": "#00ff00", "marker-symbol": "circle", "Station site type": "Secondary school", "Site name": "Thome Boys Secondary School", "Country": "KENYA", "Mount height (meters)": "2", "Station status": "Active", "Station ID": "TA00071", "marker-size": "medium"}}, {"geometry": {"type": "Point", "coordinates": [37.0744122, -0.5660801, 1722.0]}, "type": "Feature", "properties": {"Date of installation": "11/19/2015", "marker-color": "#00ff00", "marker-symbol": "circle", "Station site type": "Secondary school", "Site name": "South Tetu Girls High School", "Country": "KENYA", "Mount height (meters)": "2", "Station status": "Active", "Station ID": "TA00072", "marker-size": "medium"}}, {"geometry": {"type": "Point", "coordinates": [34.9546417, -0.2843613, 1170.0]}, "type": "Feature", "properties": {"Date of installation": "12/3/2015", "marker-color": "#00ff00", "marker-symbol": "circle", "Station site type": "Secondary school", "Site name": "Urudi Mixed Secondary School", "Country": "KENYA", "Mount height (meters)": "2", "Station status": "Active", "Station ID": "TA00073", "marker-size": "medium"}}, {"geometry": {"type": "Point", "coordinates": [35.0684057, -0.3830663, 1765.0]}, "type": "Feature", "properties": {"Date of installation": "12/3/2015", "marker-color": "#00ff00", "marker-symbol": "circle", "Station site type": "Secondary school", "Site name": "Musaria Secondary School", "Country": "KENYA", "Mount height (meters)": "2", "Station status": "Active", "Station ID": "TA00074", "marker-size": "medium"}}, {"geometry": {"type": "Point", "coordinates": [36.3769356, -0.2001778, 2421.0]}, "type": "Feature", "properties": {"Date of installation": "1/11/2016", "marker-color": "#00ff00", "marker-symbol": "circle", "Station site type": "Secondary school", "Site name": "Nyandarua High School", "Country": "KENYA", "Mount height (meters)": "2.5", "Station status": "Active", "Station ID": "TA00075", "marker-size": "medium"}}, {"geometry": {"type": "Point", "coordinates": [36.8184056, -1.0876139, 1767.0]}, "type": "Feature", "properties": {"Date of installation": "1/28/2016", "marker-color": "#00ff00", "marker-symbol": "circle", "Station site type": "Farmers training centre", "Site name": "Waruhiu ATC(Agriculture Training Centre)", "Country": "KENYA", "Mount height (meters)": "2", "Station status": "Active", "Station ID": "TA00076", "marker-size": "medium"}}, {"geometry": {"type": "Point", "coordinates": [35.0853626, 1.2734194, 2063.0]}, "type": "Feature", "properties": {"Date of installation": "5/11/2016", "marker-color": "#00ff00", "marker-symbol": "circle", "Station site type": "Secondary school", "Site name": "Nasokol Girls High School", "Country": "KENYA", "Mount height (meters)": "2", "Station status": "Active", "Station ID": "TA00077", "marker-size": "medium"}}, {"geometry": {"type": "Point", "coordinates": [34.9201361, 0.9141056, 1757.0]}, "type": "Feature", "properties": {"Date of installation": "4/8/2016", "marker-color": "#00ff00", "marker-symbol": "circle", "Station site type": "Commercial farm", "Site name": "Bubayi-Saboti Farm", "Country": "KENYA", "Mount height (meters)": "2", "Station status": "Active", "Station ID": "TA00078", "marker-size": "medium"}}, {"geometry": {"type": "Point", "coordinates": [-7.969808, 12.592952, 8.0]}, "type": "Feature", "properties": {"Date of installation": "10/11/2015", "marker-color": "#00ff00", "marker-symbol": "circle", "Station site type": "Chez moi", "Site name": "Amadou TANGARA", "Country": "MALI", "Mount height (meters)": "2", "Station status": "Active", "Station ID": "TA00079", "marker-size": "medium"}}, {"geometry": {"type": "Point", "coordinates": [-4.7839194, 13.2418111, 282.0]}, "type": "Feature", "properties": {"Date of installation": "4/13/2016", "marker-color": "#00ff00", "marker-symbol": "circle", "Station site type": "Primary school", "Site name": "Somo", "Country": "MALI", "Mount height (meters)": "2", "Station status": "Active", "Station ID": "TA00080", "marker-size": "medium"}}, {"geometry": {"type": "Point", "coordinates": [-4.7338333, 13.3297778, 287.0]}, "type": "Feature", "properties": {"Date of installation": "4/13/2016", "marker-color": "#00ff00", "marker-symbol": "circle", "Station site type": "Primary school", "Site name": "Boutenisso", "Country": "MALI", "Mount height (meters)": "2", "Station status": "Active", "Station ID": "TA00081", "marker-size": "medium"}}, {"geometry": {"type": "Point", "coordinates": [-4.4264472, 12.9966222, 328.0]}, "type": "Feature", "properties": {"Date of installation": "4/13/2016", "marker-color": "#00ff00", "marker-symbol": "circle", "Station site type": "Primary school", "Site name": "Boumboro", "Country": "MALI", "Mount height (meters)": "2", "Station status": "Active", "Station ID": "TA00082", "marker-size": "medium"}}, {"geometry": {"type": "Point", "coordinates": [-4.5952139, 13.2819806, 2.0]}, "type": "Feature", "properties": {"Date of installation": "4/14/2016", "marker-color": "#00ff00", "marker-symbol": "circle", "Station site type": "Small-scale farm", "Site name": "Bolimasso", "Country": "MALI", "Mount height (meters)": "2", "Station status": "Active", "Station ID": "TA00083", "marker-size": "medium"}}, {"geometry": {"type": "Point", "coordinates": [-5.4766694, 12.2975389, 409.0]}, "type": "Feature", "properties": {"Date of installation": "4/20/2016", "marker-color": "#00ff00", "marker-symbol": "circle", "Station site type": "Health center", "Site name": "N'goutjina", "Country": "MALI", "Mount height (meters)": "2", "Station status": "Active", "Station ID": "TA00084", "marker-size": "medium"}}, {"geometry": {"type": "Point", "coordinates": [-5.4927806, 12.2622194, 404.0]}, "type": "Feature", "properties": {"Date of installation": "4/16/2016", "marker-color": "#00ff00", "marker-symbol": "circle", "Station site type": "Farmers Training Center ", "Site name": "Finkoloni", "Country": "MALI", "Mount height (meters)": "2", "Station status": "Active", "Station ID": "TA00085", "marker-size": "medium"}}, {"geometry": {"type": "Point", "coordinates": [-5.3690889, 12.3215694, 359.0]}, "type": "Feature", "properties": {"Date of installation": "4/16/2016", "marker-color": "#00ff00", "marker-symbol": "circle", "Station site type": "Small-scale farm", "Site name": "Kaniko", "Country": "MALI", "Mount height (meters)": "2", "Station status": "Active", "Station ID": "TA00086", "marker-size": "medium"}}, {"geometry": {"type": "Point", "coordinates": [-5.7841194, 11.6318306, 373.0]}, "type": "Feature", "properties": {"Date of installation": "10/6/2016", "marker-color": "#00ff00", "marker-symbol": "circle", "Station site type": "Village", "Site name": "Siramana", "Country": "MALI", "Mount height (meters)": "2", "Station status": "Active", "Station ID": "TA00087", "marker-size": "medium"}}, {"geometry": {"type": "Point", "coordinates": [4.27085, 52.080697, 12.0]}, "type": "Feature", "properties": {"Date of installation": "6/11/2015", "marker-color": "#00ff00", "marker-symbol": "circle", "Station site type": "Primary school", "Site name": "Populier", "Country": "NETHERLANDS", "Mount height (meters)": "1.5", "Station status": "Active", "Station ID": "TA00088", "marker-size": "medium"}}, {"geometry": {"type": "Point", "coordinates": [4.30801384, 52.0853006, 30.0]}, "type": "Feature", "properties": {"Date of installation": "5/12/2015", "marker-color": "#00ff00", "marker-symbol": "circle", "Station site type": "Primary school", "Site name": "Haagsche Schoolvereeniging", "Country": "NETHERLANDS", "Mount height (meters)": "2.5", "Station status": "Active", "Station ID": "TA00089", "marker-size": "medium"}}, {"geometry": {"type": "Point", "coordinates": [13.2122, 11.809969, 336.0]}, "type": "Feature", "properties": {"Date of installation": "4/2/2015", "marker-color": "#ff0000", "marker-symbol": "circle", "Station site type": "University", "Site name": "Maiduguri", "Country": "NIGERIA", "Mount height (meters)": "2", "Station status": "Closed", "Station ID": "TA00090", "marker-size": "medium"}}, {"geometry": {"type": "Point", "coordinates": [13.20978, 11.81004, 321.0]}, "type": "Feature", "properties": {"Date of installation": "6/8/2016", "marker-color": "#00ff00", "marker-symbol": "circle", "Station site type": "University", "Site name": "Unimaid WS2", "Country": "NIGERIA", "Mount height (meters)": "2", "Station status": "Active", "Station ID": "TA00091", "marker-size": "medium"}}, {"geometry": {"type": "Point", "coordinates": [13.20971, 11.80998, 324.0]}, "type": "Feature", "properties": {"Date of installation": "6/8/2016", "marker-color": "#00ff00", "marker-symbol": "circle", "Station site type": "University", "Site name": "Unimaid WS1", "Country": "NIGERIA", "Mount height (meters)": "2", "Station status": "Active", "Station ID": "TA00092", "marker-size": "medium"}}, {"geometry": {"type": "Point", "coordinates": [30.2378422, -2.2230288, 1352.0]}, "type": "Feature", "properties": {"Date of installation": "11/26/2015", "marker-color": "#00ff00", "marker-symbol": "circle", "Station site type": "Secondary school", "Site name": "Gashora Girls Academy", "Country": "RWANDA", "Mount height (meters)": "3.5", "Station status": "Active", "Station ID": "TA00093", "marker-size": "medium"}}, {"geometry": {"type": "Point", "coordinates": [-16.946375, 14.763758, 60.0]}, "type": "Feature", "properties": {"Date of installation": "6/28/2012", "marker-color": "#00ff00", "marker-symbol": "circle", "Station site type": "Engineering school", "Site name": "Thies Town Station", "Country": "SENEGAL", "Mount height (meters)": "2", "Station status": "Active", "Station ID": "TA00095", "marker-size": "medium"}}, {"geometry": {"type": "Point", "coordinates": [30.402861, -29.6277778, 673.0]}, "type": "Feature", "properties": {"Date of installation": "1/11/2015", "marker-color": "#00ff00", "marker-symbol": "circle", "Station site type": "University", "Site name": "AIM UKZN", "Country": "SOUTH AFRICA", "Mount height (meters)": "2", "Station status": "Active", "Station ID": "TA00096", "marker-size": "medium"}}, {"geometry": {"type": "Point", "coordinates": [36.77194, -3.312222, 1938.0]}, "type": "Feature", "properties": {"Date of installation": "5/11/2016", "marker-color": "#00ff00", "marker-symbol": "circle", "Station site type": "Single-story building", "Site name": "Ndoombo", "Country": "Tanzania", "Mount height (meters)": "2.5", "Station status": "Active", "Station ID": "TA00097", "marker-size": "medium"}}, {"geometry": {"type": "Point", "coordinates": [36.79572, -3.401667, 1199.0]}, "type": "Feature", "properties": {"Date of installation": "4/7/2016", "marker-color": "#00ff00", "marker-symbol": "circle", "Station site type": "University", "Site name": "NM-AIST", "Country": "Tanzania", "Mount height (meters)": "1.8", "Station status": "Active", "Station ID": "TA00098", "marker-size": "medium"}}, {"geometry": {"type": "Point", "coordinates": [32.4752694, 0.6106, 1223.0]}, "type": "Feature", "properties": {"Date of installation": "7/2/2015", "marker-color": "#00ff00", "marker-symbol": "circle", "Station site type": "Secondary school", "Site name": "Ndejje Senior Secondary School", "Country": "UGANDA", "Mount height (meters)": "2", "Station status": "Active", "Station ID": "TA00099", "marker-size": "medium"}}, {"geometry": {"type": "Point", "coordinates": [32.4725, 0.0486111, 1149.0]}, "type": "Feature", "properties": {"Date of installation": "7/10/2015", "marker-color": "#00ff00", "marker-symbol": "circle", "Station site type": "Government office", "Site name": "Entebbe WME", "Country": "UGANDA", "Mount height (meters)": "2", "Station status": "Active", "Station ID": "TA00100", "marker-size": "medium"}}, {"geometry": {"type": "Point", "coordinates": [33.2437194, 0.4834972, 1346.0]}, "type": "Feature", "properties": {"Date of installation": "7/4/2015", "marker-color": "#00ff00", "marker-symbol": "circle", "Station site type": "Secondary school", "Site name": "Wanyange Girls School", "Country": "UGANDA", "Mount height (meters)": "2", "Station status": "Active", "Station ID": "TA00101", "marker-size": "medium"}}, {"geometry": {"type": "Point", "coordinates": [34.0461694, 0.7569194, 1119.0]}, "type": "Feature", "properties": {"Date of installation": "8/3/2015", "marker-color": "#00ff00", "marker-symbol": "circle", "Station site type": "University", "Site name": "Busitema University", "Country": "UGANDA", "Mount height (meters)": "2", "Station status": "Active", "Station ID": "TA00102", "marker-size": "medium"}}, {"geometry": {"type": "Point", "coordinates": [32.4622806, 1.2102444, 1074.0]}, "type": "Feature", "properties": {"Date of installation": "7/8/2015", "marker-color": "#00ff00", "marker-symbol": "circle", "Station site type": "Health center", "Site name": "Kazwama Health Center", "Country": "UGANDA", "Mount height (meters)": "2", "Station status": "Active", "Station ID": "TA00103", "marker-size": "medium"}}, {"geometry": {"type": "Point", "coordinates": [32.0373083, 0.4007722, 1224.0]}, "type": "Feature", "properties": {"Date of installation": "7/5/2015", "marker-color": "#00ff00", "marker-symbol": "circle", "Station site type": "Secondary school", "Site name": "Mityana Secondary School", "Country": "UGANDA", "Mount height (meters)": "2", "Station status": "Active", "Station ID": "TA00104", "marker-size": "medium"}}, {"geometry": {"type": "Point", "coordinates": [31.706169, 1.685136, 1149.0]}, "type": "Feature", "properties": {"Date of installation": "7/23/2013", "marker-color": "#00ff00", "marker-symbol": "circle", "Station site type": "Secondary school", "Site name": "Masindi Water Trust Station", "Country": "UGANDA", "Mount height (meters)": "6", "Station status": "Active", "Station ID": "TA00105", "marker-size": "medium"}}, {"geometry": {"type": "Point", "coordinates": [-123.289175, 44.550053, 71.0]}, "type": "Feature", "properties": {"Date of installation": "9/18/2015", "marker-color": "#00ff00", "marker-symbol": "circle", "Station site type": "Primary school", "Site name": "Adams Elementary School", "Country": "USA", "Mount height (meters)": "2", "Station status": "Active", "Station ID": "NA", "marker-size": "medium"}}, {"geometry": {"type": "Point", "coordinates": [-116.814314, 43.543203, 701.0]}, "type": "Feature", "properties": {"Date of installation": "11/4/2016", "marker-color": "#00ff00", "marker-symbol": "circle", "Station site type": "Secondary school", "Site name": "Marsing School Idaho", "Country": "USA", "Mount height (meters)": "2", "Station status": "Active", "Station ID": "NA", "marker-size": "medium"}}]}